{
  "1": {
    "name": "Aca pizza",
    "restaurantType": "Other",
    "status": true,
    "location": {
      "longitude": 0.0,
      "latitude": 0.0,
      "address": {
        "street": "BUlevar",
        "number": "11",
        "city": "Novi Sad",
        "zipCode": "21000"
      }
    },
    "logoUrl": "logo",
    "id": "1"
  },
  "2": {
    "name": "Bulevar Pizza",
    "restaurantType": "Other",
    "status": true,
    "location": {
      "longitude": 0.0,
      "latitude": 0.0,
      "address": {
        "street": "BUlevar",
        "number": "11",
        "city": "Novi Sad",
        "zipCode": "21000"
      }
    },
    "logoUrl": "logo",
    "id": "2"
  },
  "3": {
    "name": "Tortilja",
    "restaurantType": "Other",
    "status": false,
    "location": {
      "longitude": 0.0,
      "latitude": 0.0,
      "address": {
        "street": "BUlevar",
        "number": "11",
        "city": "Novi Sad",
        "zipCode": "21000"
      }
    },
    "logoUrl": "logo",
    "id": "3"
  }
}